,ADDRESS,LATITUDE,LONGITUDE
0,176 SYDNEY ST,42.3176161,-71.0527714
1,30 ROSECLAIR ST,42.3209311,-71.059782
2,246 BOSTON ST Apt. 8,42.32137609999999,-71.0610236
3,12 ST MARGARET ST,42.3223104,-71.0602463
4,16 GREENWICH ST,42.3357058,-71.08351300000001
5,826 DORCHESTER AV,42.322695,-71.05651999999999
6,246 BOSTON ST,42.32142109999999,-71.0611284
7,163 CHESTNUT HILL AV Apt. 105,42.34234989999999,-71.1542028
8,15 RIVER ST Apt. 203,42.3566153,-71.0699291
9,486 E THIRD ST Apt. 2,42.3366834,-71.04047249999999
10,1313 WASHINGTON ST Apt. PS U11,42.3420302,-71.0684375
11,12 DARTMOUTH PL Apt. 12-2,42.3450819,-71.07365190000002
12,116 SPRING ST Apt. C-5,42.2765659,-71.1651356
13,11 SUMNER TE,42.5290664,-71.1937961
14,65 E INDIA RO Apt. 35C,42.3576699,-71.0504859
15,261 BELGRADE AV Apt. 3,42.2863597,-71.1420579
16,65 ASHLAND ST,42.2997935,-71.0502178
17,39 WARREN AV,42.3452731,-71.0715948
18,34 CREIGHTON ST Apt. 1,42.3236478,-71.10835519999999
19,64 MT VERNON ST,42.3580171,-71.0673497
20,616 SOUTH ST,42.2915473,-71.1238934
21,1313 WASHINGTON ST Apt. 422,42.3422378,-71.06853749999999
22,17 WASHBURN ST Apt. 3,42.3257258,-71.05756199999999
23,166 BOSTON ST Apt. 1,42.3238887,-71.05972160000002
24,11 PLEASANT ST Apt. 3,42.3179642,-71.0593021
25,794 DORCHESTER AV Apt. 794-2,42.3237929,-71.0565321
26,23R GERRISH ST,42.356096,-71.16354799999999
27,60 NORWELL ST Apt. 2,42.3005241,-71.0786797
28,48 MONTVALE ST Apt. 2,42.2847946,-71.1441193
29,3 CUTLER CT,42.3335839,-71.0343548
30,142 HORACE ST Apt. 3,42.3835611,-71.0141881
31,28 BOSTON ST Apt. 4,42.3284597,-71.0574266
32,BAKERSFIELD ST,42.3170093,-71.060964
33,52 SPENCER ST,42.295265,-71.0763563
34,15 RUSTLEWOOD RD,42.289352,-71.15996030000001
35,CEDRUS AV,42.2788839,-71.1359878
36,166 F ST Apt. 166-4,42.3374529,-71.0472116
37,18 W SELDEN ST,42.27988390000001,-71.08336659999999
38,47 CHARTER ST,42.3672589,-71.0545357
39,311 NORFOLK AV,42.3224089,-71.0669666
40,6 MAYHEW ST Apt. 3,42.3220253,-71.060734
41,46 UNION PK Apt. 3,42.3431441,-71.072244
42,51 SHEPTON ST,42.289764,-71.0608963
43,25 SAVOY ST Apt. PS-34,42.3417631,-71.06728559999999
44,20 STANDARD ST,42.2724001,-71.078724
45,8 KERWIN ST,42.2935544,-71.08048819999999
46,145 PINCKNEY ST Apt. 632,42.3590978,-71.0715924
47,5 HOLDEN ST,42.3189334,-71.0639605
48,4 HENCHMAN ST Apt. 5,42.3670332,-71.0539517
49,20 HOMEWOOD RD,42.2780364,-71.1563862
50,5 DEROMA RD,42.2745444,-71.15290499999999
51,1 LENNON CT Apt. 4,42.3330016,-71.026591
52,6 LORING ST,42.3344753,-71.05162229999999
53,81 HOLLINGSWORTH ST,42.2678939,-71.09961489999999
54,6 SILLOWAY ST,42.2954875,-71.06225429999999
55,20 CEDAR ST Apt. 1,42.3768032,-71.0621649
56,79 DEERING RD,42.285233,-71.094771
57,416 BELGRADE AV Apt. 34,42.2857077,-71.1493163
58,90 MARLBOROUGH ST Apt. 6,42.3533266,-71.07603519999999
59,24 RAWSON ST Apt. 6,42.3260097,-71.05793899999999
60,10 RALSTON RD,42.2666872,-71.1017751
61,6 ST MARGARET ST,42.3224561,-71.06066419999999
62,20 BUCHANAN RD,42.29552330000001,-71.135684
63,35 NORTHAMPTON ST,42.3339649,-71.0750815
64,772 E FOURTH ST Apt. 3,42.3350413,-71.0327333
65,15 BELLFLOWER ST,42.3245429,-71.0578785
66,3700 WASHINGTON ST,42.3005566,-71.1128453
67,718 COLUMBIA RD,42.3205272,-71.0608963
68,22 CHISWICK RD Apt. 22-11,42.3384016,-71.1507345
69,MALTA ST,42.2648169,-71.0973929
70,48 HARVEST ST Apt. 1,42.3230619,-71.0589928
71,CUSHMAN RD,42.3539138,-71.14728099999999
72,54 GARDENA ST,42.35368039999999,-71.1479641
73,580 WASHINGTON ST Apt. 512,42.3533804,-71.06197689999999
74,32 ROSECLAIR ST Apt. 3,42.3209396,-71.05961239999999
75,16 SYMPHONY RD Apt. 4,42.3426803,-71.0876688
76,37 BEACON ST Apt. 23,42.35727869999999,-71.0656853
77,830 DORCHESTER AV,42.32257,-71.056517
78,14 BELLFLOWER ST,42.3242775,-71.05806419999999
79,99 MURDOCK ST,42.3529973,-71.1461745
80,61 MYRTLE ST,42.3594313,-71.06666489999999
81,18 OAKLEY ST,42.301656,-71.0706924
82,13 HOWELL ST Apt. 13-3,42.3251175,-71.0574374
83,6 WHITTIER PL Apt. PS 299,42.3657336,-71.0669497
84,1627 DORCHESTER AV,42.2949858,-71.0619873
85,9 BELLFLOWER ST Apt. 1,42.3244661,-71.0576464
86,531 E SIXTH ST,42.3328937,-71.0391901
87,35 ROXBURY ST,42.329671,-71.08539499999999
88,8 CROWELL ST,42.2834752,-71.0819738
89,108 BEAUMONT ST,42.2856831,-71.0559328
90,613 DORCHESTER AV Apt. 3,42.3287134,-71.05712720000001
91,65 HOBART ST,42.355248,-71.1604613
92,642 E EIGHTH ST Apt. 642,42.3316347,-71.03587190000002
93,16 WINCHESTER ST Apt. 3,42.3496253,-71.06771119999999
94,761 DORCHESTER AV,42.3244931,-71.0570813
95,349 SILVER ST,42.3349443,-71.0457201
96,23 MT VERNON ST,42.3219773,-71.0582964
97,78 FALCON ST,42.3821258,-71.0362426
98,14 DORSET ST,42.323495,-71.0578321
99,36 RAVEN ST,42.3177398,-71.05458209999999
100,12 WASHBURN ST,42.325387,-71.057486
101,1077 SOUTH ST Apt. 1,42.28822,-71.1437095
102,107 BLUE HILL AV,42.32149800000001,-71.0776999
103,63 CENTRE ST,42.329139,-71.09476599999999
104,28 ATLANTIC AV Apt. 319,42.3632389,-71.0501235
105,287 PERKINS ST Apt. B-502,42.3199516,-71.1234064
106,15 HARVEST ST Apt. 1,42.3228997,-71.0575283
107,27 MT VERNON ST Apt. 27-1,42.32177799999999,-71.05796
108,45 HARVEST ST Apt. 2,42.3233543,-71.0586496
109,22 BOUTWELL ST,42.29127829999999,-71.0510536
110,520 BEACON ST Apt. 1D,42.3507691,-71.0906784
111,1187 DORCHESTER AV Apt. 1,42.3101131,-71.0580927
112,24 EASTBURN ST,42.3478098,-71.15670159999999
113,1 FRANKLIN ST Apt. 5506,42.3563166,-71.0595573
114,6 CRAFT PL Apt. 3,42.2968187,-71.1138227
115,59 BOURNE ST,42.2909587,-71.1149226
116,28 RAWSON ST,42.32606810000001,-71.05811059999999
117,35 FALCON ST,42.381792,-71.038203
118,41 HOWELL ST,42.3254126,-71.05862130000001
119,463 E SIXTH ST,42.3328398,-71.0420766
120,297 K ST Apt. 2,42.33342589999999,-71.0376181
121,52 CHARLESGATE EAST Apt. 157,42.3470701,-71.0906559
122,78 SUMNER ST,42.3168491,-71.0621963
123,137 CHISWICK RD Apt. 137-2B,42.3409871,-71.15362449999999
124,77 DAVISON ST,42.2579699,-71.117116
125,14 EVERETT ST Apt. 6,42.3016617,-71.0523729
126,24 HARVEST ST,42.3227462,-71.05796169999999
127,11 PLEASANT ST,42.3179918,-71.0593178
128,34 SEDGWICK ST,42.3087518,-71.1140522
129,39 DORCHESTER ST Apt. 3,42.3366792,-71.0443288
130,24 WYCLIFF AV,42.2762904,-71.1682223
131,15 RUNNING BROOK RD,42.2642944,-71.1505842
132,17 CENTERVALE PK,42.2963031,-71.0628462
133,1028 DORCHESTER AV,42.315584,-71.056403
134,722 COLUMBIA RD,42.3204425,-71.06061770000001
135,15 RAYMOND ST,42.3614098,-71.13482479999999
136,499 E SIXTH ST,42.3328664,-71.0407463
137,26 HOWE ST,42.31090409999999,-71.0647747
138,65 STORY ST,42.3333257,-71.04183669999999
139,12 BELLFLOWER ST,42.3242537,-71.05792490000002
140,8 MT VERNON ST Apt. 4,42.3228722,-71.0596437
141,24 THORNLEY ST,42.3140864,-71.0588535
142,57 HARBOR VIEW ST Apt. 1,42.3168627,-71.0539593
143,14 MARDEN AV Apt. 14,42.28469090000001,-71.08683839999999
144,802 E THIRD ST,42.33674800000001,-71.0275717
145,7 COOK ST,42.3801036,-71.06418099999999
146,63 ROSECLAIR ST,42.32080209999999,-71.0581571
147,1084R SARATOGA ST,42.385757,-71.00326299999999
148,38 KENNETH ST,42.2844395,-71.14942669999999
149,22 LIBERTY DR Apt. B1-64,42.3545427,-71.0452696
150,25 MT VERNON ST Apt. #6 3RD,42.3810374,-71.0800593
151,37 MT VERNON ST Apt. 1R,42.321589,-71.057245
152,33 MAYHEW ST,42.3211331,-71.05922490000002
153,W SECOND ST,42.3405956,-71.04996349999999
154,136 SHAWMUT AV Apt. PS-7,42.345897,-71.065861
155,158 NONANTUM ST,42.3500063,-71.1742562
156,32 E SPRINGFIELD ST Apt. 2,42.3362457,-71.0751655
157,519 HARRISON AV Apt. D-517,42.34168409999999,-71.0674657
158,5 MATHER ST,42.294783,-71.06231389999999
159,7 SNOWDEN WY,42.2913848,-71.09195509999999
160,23 EAST ST,42.3077852,-71.05948029999999
161,7 MT VERNON ST,42.3587516,-71.0634279
162,1404 COMMONWEALTH AV Apt. 4-20,42.3483399,-71.138358
163,HARLESTON ST,42.3293617,-71.10209360000002
164,720 COLUMBIA RD,42.3204662,-71.060757
165,109 LEXINGTON ST,42.378166,-71.035686
166,14 ATLANTIC ST,42.33410569999999,-71.04603920000001
167,84 H ST Apt. 1,42.33493319999999,-71.0413111
168,4 CHARLES ST,42.35462039999999,-71.070785
169,90 GAINSBOROUGH ST Apt. 403E,42.3423223,-71.088921
170,15 CRESTHILL RD,42.3557818,-71.15731459999999
171,52 MOSELEY ST,42.3207112,-71.05458209999999
172,31 WYCLIFF AV,42.2766059,-71.16854719999999
173,ST MARGARET ST,42.3219011,-71.0594821
174,160 BOSTON ST,42.32422520000001,-71.0594795
175,30 N MUNROE TE,42.2924241,-71.05253929999999
176,251 R BOSTON ST,42.3212523,-71.061797
177,22 CHURCH ST Apt. 3,42.348793,-71.06826989999999
178,37 SUMNER ST,42.3185315,-71.0618248
179,766 E THIRD ST Apt. 770-3,42.336749,-71.0289998
180,58 DORSET ST,42.3240126,-71.05966599999999
181,33 MT VERNON ST,42.3585008,-71.0645667
182,524 DUDLEY ST,42.32230759999999,-71.0724101
183,39 KING ST,42.292461,-71.05901399999999
184,598R E SEVENTH ST,42.332643,-71.036244
185,11 WESTBOURNE ST,42.2810133,-71.1428324
186,87 SCHOOL ST Apt. 1,42.3789727,-71.06328669999999
187,43 PEARL ST,42.31526969999999,-71.0590392
188,24 RAWSON ST Apt. PS-12,42.3260099,-71.057959
189,6 WHITTIER PL Apt. B-104,42.3656073,-71.0673891
190,629 DORCHESTER AV,42.3283462,-71.05705209999999
191,25 HUMPHREYS PL,42.3196736,-71.0678604
192,8 MT VERNON ST Apt. 1,42.3228722,-71.0596437
193,42 EIGHTH ST Apt. 5525,42.3749988,-71.0520878
194,246 BOSTON ST Apt. 9,42.32137609999999,-71.0610236
195,64 MORELAND ST,42.3243529,-71.07960609999999
196,9 SUMMER ST,42.3548422,-71.0600497
197,8 REDWOOD ST,42.2933871,-71.06122130000001
198,25 W FIFTH ST Apt. 25- 3,42.3399171,-71.0564325
199,17 HARVEST ST Apt. 3,42.3229788,-71.0577717
200,241 W THIRD ST Apt. 1,42.3386019,-71.0487878
201,588 ADAMS ST,42.289762,-71.05572099999999
202,15 HARVEST ST Apt. 3,42.3228997,-71.0575283
203,26 RITA RD,42.2823111,-71.050775
204,65 E INDIA RO Apt. 4A,42.3576699,-71.0504859
205,290 COMMONWEALTH AV Apt. D,42.3496237,-71.0847185
206,19 BELLFLOWER ST Apt. 5,42.3246355,-71.05820349999999
207,171 SOUTH ST Apt. B-2,42.3037882,-71.11514
208,29 MT VERNON ST Apt. 29-2,42.321724,-71.057824
209,331 NEWBURY ST,42.3487315,-71.0864335
210,41 SOUTH ST Apt. 41-1,42.3399619,-71.157572
211,132 BOSTON ST Apt. 3,42.3248925,-71.0590496
212,187 NORTH ST Apt. 9,42.3632094,-71.0535685
213,309 EMERSON ST Apt. 12,42.3343584,-71.03409599999999
214,42 SALINA RD Apt. 1,42.2926091,-71.0495423
215,27 WASHBURN ST Apt. 4,42.3258236,-71.0579183
216,20 HARVEST ST,42.322705,-71.0578333
217,298 LAMARTINE ST Apt. 1,42.3126198,-71.1077121
218,160 WILMINGTON AV,42.280452,-71.0723173
219,45 BULLARD ST,42.3019872,-71.0745922
220,14 SCHOOL ST,42.35747730000001,-71.0590229
221,3 SEXTON CT,42.321981,-71.0611888
222,39 STORY ST Apt. 2,42.3332994,-71.04254379999999
223,17 MT VERNON ST,42.32219180000001,-71.0588999
224,36 HOWLAND ST,42.3128366,-71.0865699
225,119 ROSLINDALE AV,42.2838751,-71.1351734
226,5A MT VERNON ST Apt. 4,42.3224803,-71.0599486
227,MAYHEW ST,42.3215495,-71.0598061
228,15 BRIER RD,42.2754415,-71.15183739999999
229,15 WILLIAMS AV,42.2508974,-71.1192166
230,67 SAGAMORE ST,42.3160845,-71.054025
231,39 ST MARGARET ST,42.3214995,-71.0587606
232,320 SAVIN HILL AV,42.3123026,-71.04852319999999
233,38 DIX ST,42.2955513,-71.0599677
234,151 TREMONT ST Apt. 257,42.3549861,-71.063255
235,34 LARCHMONT ST,42.2967337,-71.0690674
236,23 HASLET ST,42.2851899,-71.1350341
237,5 SAGAMORE ST,42.3128124,-71.0550928
238,436 MARLBOROUGH ST Apt. 3,42.3496557,-71.0899459
239,18 SOUTHERN AV,42.2906578,-71.0725073
240,1313 WASHINGTON ST Apt. 516,42.3422378,-71.06853749999999
241,766 E THIRD ST Apt. PS #17,42.3600825,-71.0588801
242,21 ATHELWOLD ST,42.2963866,-71.0762867
243,22B MT VERNON ST Apt. 22B,42.3222719,-71.05806419999999
244,80 STANTON ST,42.2828866,-71.0783062
245,8 OAKWOOD ST,42.2689663,-71.1104437
246,1313 WASHINGTON ST Apt. 517,42.3422378,-71.06853749999999
247,5A MT VERNON ST Apt. 2,42.3224803,-71.0599486
248,13 HOWELL ST Apt. 13-1,42.3251175,-71.0574374
249,823 DORCHESTER AV,42.3228031,-71.05704279999999
250,19 ELMORE ST Apt. 3,42.3203761,-71.0920741
251,20 SHAWMUT ST,42.3502242,-71.0682273
252,16 MORSE ST,42.3044363,-71.0784919
253,20 JENKINS ST,42.3305649,-71.0532937
254,16 DORSET ST Apt. 1,42.32349139999999,-71.0579593
255,31 MT VERNON ST Apt. 2,42.3216636,-71.05769719999999
256,65 ROSECLAIR ST,42.3208685,-71.0580464
257,42 KING ST Apt. 2,42.2929583,-71.058909
258,11A MT VERNON ST,42.322271,-71.059319
259,37 MT VERNON ST Apt. 2R,42.321589,-71.057245
260,893 E SECOND ST Apt. 9,42.3372254,-71.027508
261,13 ALGONQUIN ST,42.29800059999999,-71.073503
262,30 MACDONALD ST,42.2701201,-71.1286863
263,538 POPLAR ST,42.2726047,-71.1309957
264,39 SAXTON ST,42.31361160000001,-71.0541178
265,425 NEWBURY ST Apt. A-21,42.3482066,-71.0903733
266,HERBERTSON RD,42.2919119,-71.116162
267,19 GOODALE RD,42.2832809,-71.09260499999999
268,15 RIVER ST Apt. 502,42.3566153,-71.0699291
269,77 WALDECK ST,42.2982171,-71.06600329999999
270,549 E FOURTH ST Apt. D-2,42.3342981,-71.0428824
271,14 BOLSTER ST,42.3221581,-71.1055106
272,4925 WASHINGTON ST Apt. 202,42.2692059,-71.1494854
273,29 GIBSON ST,42.2973751,-71.0595499
274,7 LINDSEY ST,42.298235,-71.0669782
275,16 ST BRENDAN RD,42.28042600000001,-71.0510536
276,46 MAYHEW ST Apt. B,42.3212132,-71.0583892
277,7 VICKSBURG ST Apt. 13,42.3374754,-71.0403539
278,204 ALLANDALE ST Apt. 204-B,42.3009916,-71.1374759
279,39 RICHWOOD ST,42.2861433,-71.15879989999999
280,58 HARVEST ST,42.323174,-71.059491
281,3708 WASHINGTON ST,42.300283,-71.1129845
282,21 BEACON ST Apt. 7-R,42.35827219999999,-71.06243490000001
283,117 DRESSER ST Apt. 4,42.3372097,-71.04412359999999
284,91 BLOOMFIELD ST,42.2987861,-71.0698799
285,61 MORRELL ST,42.2726597,-71.1665513
286,147 KELTON ST Apt. 510,42.3478845,-71.13960639999999
287,6 WHITTIER PL Apt. B-102,42.3656073,-71.0673891
288,30 BOSTON ST Apt. 3,42.3283883,-71.0574573
289,31 MT VERNON ST Apt. 1,42.3216636,-71.05769719999999
290,25 HOWELL ST,42.3252882,-71.05811059999999
291,50 LINWOOD ST,42.3281522,-71.0946941
292,15 STONEHURST ST,42.3043441,-71.0677211
293,679 TREMONT ST Apt. 3,42.3416472,-71.0765138
294,10 CARSON ST,42.3196288,-71.0546371
295,8 MT VERNON ST Apt. 3,42.3228722,-71.0596437
296,140 KILSYTH RD Apt. 8,42.3394345,-71.1468538
297,64 PINCKNEY ST Apt. 4,42.3586973,-71.0677668
298,32 CHESTNUT AV,42.3573799,-71.0678023
299,17 LEVANT ST,42.3032359,-71.0697174
300,42 WASHBURN ST Apt. 3,42.3257205,-71.0586008
301,7 HELENA RD,42.286873,-71.055296
302,WESTON ST,42.2509217,-71.1401801
303,374 W BROADWAY Apt. 10,42.3378384,-71.048721
304,45 WRENTHAM ST,42.2879612,-71.06122130000001
305,41 MALLET ST,42.290518,-71.058256
306,64 HARVEST ST Apt. 2,42.3232065,-71.0595999
307,90 MARLBOROUGH ST Apt. PS-1,42.3533321,-71.07603259999999
308,27 MT VERNON ST Apt. 27-2,42.32177799999999,-71.05796
309,10 DONCASTER ST,42.2749393,-71.12532089999999
310,53 HOBSON ST,42.35454319999999,-71.1616842
311,8 GARRISON ST Apt. 203,42.3461771,-71.0796086
312,124 COLBERG AV,42.2824421,-71.1444571
313,676 PARKER ST,42.3324261,-71.0963761
314,7 DORSET ST,42.3237128,-71.0573678
315,139 SPENCER ST,42.29226329999999,-71.07575280000002
316,10 NEWPORT ST,42.3185846,-71.0537116
317,103 BEACON ST Apt. 4,42.3550497,-71.0728823
318,1313 WASHINGTON ST Apt. PS L7A,42.3420302,-71.0684375
319,28 LEXINGTON ST,42.3773986,-71.0387301
320,195 BEACON ST Apt. 10,42.3540791,-71.07646969999999
321,757 DORCHESTER AV Apt. 3,42.3245593,-71.05711769999999
322,20 CUFFLIN ST,42.3506591,-71.1741633
323,47 CIRCUIT ST Apt. 47-2,42.3236566,-71.08633040000001
324,687 WASHINGTON ST,42.287583,-71.071471
325,330 CENTRE ST,42.3224206,-71.1057427
326,32 ROSECLAIR ST Apt. 2,42.3209396,-71.05961239999999
327,44 LEONARD ST,42.3018517,-71.0577508
328,30 HOWELL ST Apt. 3,42.32500659999999,-71.0583779
329,8 HOWELL ST Apt. 2,42.32474089999999,-71.0570788
330,26 WESTCOTT ST,42.292443,-71.078536
331,819 DORCHESTER AV,42.3229516,-71.05704279999999
332,12 DARTMOUTH PL Apt. 12-3,42.3450819,-71.07365190000002
333,339 NEWBURY ST,42.3486902,-71.0867353
334,53 BLAKE ST,42.2662058,-71.1069497
335,140 MT VERNON ST Apt. 4,42.3574115,-71.07110279999999
336,201 SALEM ST Apt. 3,42.36667,-71.0543844
337,6 PLEASANT ST,42.3183411,-71.0586446
338,68 PERCIVAL ST,42.3051252,-71.0629391
339,9 HAWTHORNE PL Apt. 4-M,42.3642406,-71.066169
340,9 HAWTHORNE PL Apt. 16-R,42.3642406,-71.066169
341,136 HIGH ST Apt. 136-3,42.3600825,-71.0588801
342,26 CRANDALL ST,42.2812077,-71.1271428
343,120 W SEVENTH ST,42.3360905,-71.0529803
344,47 HARVEST ST Apt. 2,42.3234067,-71.0588315
345,29 MT VERNON ST Apt. 29-3,42.321724,-71.057824
346,25 SAVOY ST Apt. PS-33,42.3417631,-71.06728559999999
347,41 GARNER RD,42.2901455,-71.0542107
348,37 MT VERNON ST Apt. 3R,42.321589,-71.057245
349,28 DOW RD,42.2814414,-71.1678974
350,2 STARBIRD AV,42.285372,-71.1138994
351,29 OCEAN ST,42.2861489,-71.06693179999999
352,33 MESSINGER ST,42.2733234,-71.09896499999999
353,145 ST BOTOLPH ST Apt. 34,42.3436678,-71.0826518
354,AMORET RD,38.2549946,-94.58795630000002
355,180 COMMONWEALTH AV Apt. 12,42.35104500000001,-71.07950029999999
356,58 WRENTHAM ST,42.2883864,-71.06066419999999
357,26 PARKER ST,42.3829769,-71.0789568
358,27 WASHBURN ST Apt. 6,42.3258236,-71.0579183
359,16 JOHNSON ST,42.2729171,-71.16390559999999
360,17 BELLFLOWER ST Apt. 1,42.3246038,-71.0580178
361,24 RAWSON ST Apt. PS-16,42.3260099,-71.057959
362,36 BELDEN ST,42.3189758,-71.0653152
363,26 STILLMAN ST Apt. 3-5,42.3636899,-71.05695639999999
364,39 VERNON ST,42.2510735,-71.1413006
365,65 HOWITT RD,42.2766866,-71.1536941
366,404 W FIRST ST Apt. 34,42.3377439,-71.0433747
367,17 BELLFLOWER ST,42.3246038,-71.0580178
368,12 ELTON ST,42.3140003,-71.0563928
369,8 MT VERNON ST Apt. 5,42.3228722,-71.0596437
370,14 WESTLAND AV Apt. 3,42.343196,-71.0867487
371,50 GOULD ST,42.2714985,-71.1680366
372,973 SARATOGA ST,42.3866816,-71.00782629999999
373,641 E SIXTH ST,42.3329765,-71.0346059
374,130 PRINCETON ST,42.3781115,-71.0349145
375,32 HOWELL ST,42.3250917,-71.05848209999999
376,208 WELD ST,42.293249,-71.1413819
377,8 HOWELL ST Apt. 6,42.32474089999999,-71.0570788
378,35 CHANNEL CENTER ST Apt. 203,42.3463778,-71.05055349999999
379,26 MOSELEY ST,42.3199326,-71.0553994
380,757 DORCHESTER AV Apt. 2,42.3245593,-71.05711769999999
381,23 JOHNSWOOD RD,42.2836986,-71.12304630000001
382,10 SYMMES ST Apt. 1,42.28923109999999,-71.1310268
383,5 VERA ST,42.2786567,-71.0757928
384,39 PLEASANTDALE RD,42.2607626,-71.1624203
385,22 BOWMAN ST Apt. 22,42.2870517,-71.0475615
386,14 ALICIA RD,42.2800172,-71.0684639
387,32 PARKTON RD Apt. 2,42.3223782,-71.1143614
388,9 P ST Apt. 2,42.3378996,-71.0275304
389,31 ROXBURY ST,42.329701,-71.085346
390,159 READVILLE ST,42.2389904,-71.13610179999999
391,6 WHITTIER PL Apt. B101-6,42.3657336,-71.0669497
392,155 PARK ST,42.283658,-71.15401899999999
393,120 NORWAY ST Apt. 1,42.3450109,-71.0888789
394,47 MILWOOD ST,42.2803868,-71.0577856
395,64 DEERING RD,42.2845616,-71.0942298
396,24 MT VERNON ST Apt. 24C,42.32220299999999,-71.0578785
397,19 GRASSMERE RD,42.2685927,-71.1295451
398,28 BOSTON ST Apt. 1,42.3284597,-71.0574266
399,173 DELHI ST,42.2759388,-71.09009809999999
400,120 W SEVENTH ST Apt. 401,42.3360342,-71.05312959999999
401,8 CUTHBERT RD,42.279168,-71.15035209999999
402,15 DORSET ST,42.3238531,-71.0579714
403,20HF ARCADIA ST,42.3017675,-71.061532
404,782 DORCHESTER AV,42.3239122,-71.0565785
405,95 MURDOCK ST,42.3528938,-71.14622090000002
406,1514 CENTRE ST,42.2907749,-71.139856
407,26 ROSECLAIR ST,42.3209787,-71.0600606
408,69 W COTTAGE ST,42.3207415,-71.0756547
409,10 ST MARGARET ST,42.32236340000001,-71.0603392
410,38 N BENNET ST Apt. 2,42.3655061,-71.0547395
411,20 RADCLIFFE RD Apt. 103,42.351094,-71.13493249999999
412,85 DEERING RD,42.2852671,-71.0948798
413,13 HOWELL ST Apt. 13-2,42.3251175,-71.0574374
414,62 GREENWICH ST,42.304373,-71.0565785
415,20 BURMAH ST,42.2647212,-71.0984544
416,1280 WASHINGTON ST Apt. 403,42.34200389999999,-71.0675124
417,8R MT VERNON ST Apt. 7,42.3228722,-71.0596437
418,77 CORNELL ST Apt. 2,42.2764964,-71.1306961
419,1313 WASHINGTON ST Apt. PS U95,42.3419965,-71.06837759999999
420,1030 DORCHESTER AV,42.315524,-71.056409
421,146 BOSTON ST,42.3245434,-71.0592945
422,657 DORCHESTER AV,42.3276075,-71.05714859999999
423,1746 COMMONWEALTH AV Apt. 12A,42.3410415,-71.1494398
424,19 BELLFLOWER ST Apt. 3,42.3246355,-71.05820349999999
425,27 MAYHEW ST,42.321361,-71.0596892
426,135 NEPONSET AV Apt. 43,42.2937139,-71.0521306
427,336 ADAMS ST Apt. 10,42.2980775,-71.0564546
428,24 RAWSON ST Apt. 5,42.3260097,-71.05793899999999
429,7 BELLFLOWER ST Apt. 2,42.3244502,-71.0575535
430,300 COMMERCIAL ST Apt. 205,42.3651152,-71.0514577
431,25 JUNIPER ST,42.3250802,-71.08865899999999
432,1313 WASHINGTON ST Apt. CC-106,42.3420302,-71.0684375
433,8 DORSET ST,42.3233944,-71.0574607
434,9 GRAYSON ST,42.2829033,-71.0505428
435,5 MALTA ST,42.2651864,-71.09812939999999
436,189 CHESTNUT HILL AV Apt. 189-16,42.3415051,-71.1549241
437,437 MARLBOROUGH ST,42.35002650000001,-71.0901263
438,375 MARLBOROUGH ST Apt. 1,42.3507563,-71.08739609999999
439,JERUSALEM PL,42.36464,-71.0559431
440,6 WOODBOURNE RD,42.2918381,-71.1129381
441,5A MT VERNON ST Apt. 3,42.3224803,-71.0599486
442,17 HARVEST ST Apt. 1,42.3229788,-71.0577717
443,1313 WASHINGTON ST Apt. PS L89,42.3420302,-71.0684375
444,83 HARVARD AV,42.3534932,-71.1324367
445,56 HAMPSTEAD RD,42.3036836,-71.11702319999999
446,33 I ST,42.3369994,-71.0401079
447,87 ROSECLAIR ST Apt. 3,42.3213361,-71.0571207
448,332 CENTRE ST,42.3224443,-71.105882
449,164 BOSTON ST Apt. 3,42.3239838,-71.0596999
450,1313 WASHINGTON ST Apt. PS L7B,42.3420302,-71.0684375
451,44 HARVEST ST,42.323001,-71.0588535
452,52 O ST Apt. 1,42.3367067,-71.029062
453,53 M ST Apt. 1,42.3362083,-71.0336064
454,ORIENT AV,42.3903206,-71.0049914
455,14 ROSECLAIR ST,42.32103439999999,-71.0606337
456,51 CEDAR GROVE,42.2811013,-71.04956779999999
457,326 CENTRE ST,42.3224474,-71.1054642
458,826 E FIFTH ST Apt. 1,42.3342268,-71.02735179999999
459,19 BELLFLOWER ST Apt. 4,42.3246355,-71.05820349999999
460,3 WHITTEN ST,42.2925557,-71.0620106
461,BARNES AV,42.3864269,-71.0035815
462,119 ELMER RD,42.2868817,-71.0562071
463,141 W SECOND ST,42.3421321,-71.0527018
464,11 CLAXTON ST,42.293741,-71.1195299
465,17 BELLFLOWER ST Apt. 3,42.3246038,-71.0580178
466,17 LINCOLN ST,42.2996843,-71.05936419999999
467,WALWORTH ST,42.2826603,-71.1373692
468,3710 WASHINGTON ST,42.300249,-71.113075
469,11 WIGET ST,42.3640897,-71.0561484
470,9 ST MARGARET ST Apt. 3,42.3221388,-71.0605861
471,25 EAST ST,42.3372623,-71.0744756
472,69 BRADFIELD AV Apt. 2,42.28993330000001,-71.1401635
473,81 PLEASANT HILL AV,42.2755709,-71.0723057
474,133 W SELDEN ST,42.2767072,-71.08675560000002
475,12 MARYLAND ST,42.311576,-71.05510799999999
476,52 METROPOLITAN AV Apt. 1,42.2810863,-71.1325667
477,11 CATAUMET ST,42.3135336,-71.1231507
478,21 CAWFIELD ST Apt. 2,42.32031629999999,-71.0635085
479,35 FAIRMOUNT ST,42.2810821,-71.0728512
480,139 CHESTNUT AV Apt. 3,42.318257,-71.10619489999999
481,26 TOLMAN ST,42.2894522,-71.0464571
482,821 DORCHESTER AV,42.32287729999999,-71.05704279999999
483,81 FULLER ST,42.282743,-71.0696246
484,172 PARIS ST,42.37402,-71.036135
485,33 TAFT ST,42.31764200000001,-71.0585749
486,430 MARLBOROUGH ST,42.3497264,-71.0896803
487,6 COLUMBIA TE,42.3036023,-71.08467499999999
488,235 PARK ST,42.281747,-71.150407
489,17 HOWELL ST,42.3252327,-71.0577856
490,HARVARD ST,42.288154,-71.0929001
491,24 ARCADIA ST,42.3015512,-71.062361
492,27 TEMPLE ST,42.3604422,-71.0637284
493,59 GOULD ST,42.2711323,-71.16785089999999
494,650 HUNTINGTON AV,42.3352458,-71.1003577
495,32 ROSECLAIR ST Apt. 1,42.3209396,-71.05961239999999
496,26 SHIRLEY ST,42.3236314,-71.0725494
497,10 CHARLESGATE EAST Apt. 301,42.3498885,-71.0912422
498,2 HAWTHORNE PL Apt. 110,42.3642406,-71.066169
499,91 WILLOW ST,42.2892789,-71.1531835
500,19 MYRTLEBANK AV,42.2821184,-71.0539874
501,96 NEPONSET AV,42.2950437,-71.0528643
502,2 WOOD ST Apt. 2,42.3759483,-71.06463889999999
503,88 AUSTIN ST,42.2612834,-71.1260404
504,5 DORSET ST Apt. 2,42.3236744,-71.0572189
505,44 HASTINGS ST,42.286542,-71.15747
506,1 JOHNSWOOD RD,42.2843563,-71.1222687
507,11 PAUL GORE ST Apt. 1,42.3204618,-71.11048459999999
508,11 CENTRE CT,42.2954258,-71.0572749
509,352 BEACON ST Apt. 1,42.3524682,-71.0846322
510,275 HAVRE ST,42.3760697,-71.0342774
511,1313 WASHINGTON ST Apt. 229,42.3422378,-71.06853749999999
512,20 ROWES WHARF Apt. PH07,42.3569094,-71.0500568
513,6 WHITTIER PL Apt. 8R-6,42.3657336,-71.0669497
514,32 WASHBURN ST,42.3256012,-71.05820349999999
515,27 TURNER ST,42.34994469999999,-71.1618633
516,275R HAVRE ST,42.375972,-71.03420299999999
517,34 ATLANTIS ST,42.2887031,-71.1690577
518,37 WORCESTER SQ Apt. 4,42.3359981,-71.07431729999999
519,79 ROSSMORE RD Apt. 1,42.3035041,-71.105764
520,116 SPRING ST Apt. A-9,42.2765659,-71.1651356
521,67 BRENT ST,42.28970839999999,-71.0675354
522,8 WASHBURN ST Apt. 15-1,42.3253205,-71.0572637
523,15 GINITA ST,42.2944517,-71.0572285
524,489 COLUMBIA RD,42.3142282,-71.06718719999999
525,743 CENTRE ST,42.3107137,-71.11484
526,138 MSGR P J LYDON WY,42.2900803,-71.0564392
527,84 ROSECLAIR ST Apt. 3,42.3213851,-71.0575289
528,19 PRINCE ST,42.3098898,-71.1206876
529,57 BERKELEY ST,42.34663279999999,-71.0705183
530,9 STEARNS RD,42.266092,-71.1526265
531,60 SPRING PARK AV Apt. 2,42.3166322,-71.1089045
532,16 WOODLAND RD,42.3101349,-71.1280712
533,1313 WASHINGTON ST Apt. PS U10,42.3420302,-71.0684375
534,15HF MT VERNON ST Apt. 2,42.3580158,-71.0685149
535,10 MILTON ST Apt. 1,42.28007179999999,-71.05996139999999
536,60 DUNBOY ST,42.35422399999999,-71.16474099999999
537,17 DORSET ST,42.32391399999999,-71.05811059999999
538,734 COLUMBIA RD,42.32036,-71.060216
539,27 WASHBURN ST Apt. 2,42.3258236,-71.0579183
540,3 ROLLINS ST Apt. C-101,42.3414146,-71.06795319999999
541,BENNINGTON ST,42.38402,-71.01471300000001
542,72 MONTCLAIR AV,42.2916437,-71.1410685
543,E SIXTH ST,42.3331368,-71.034337
544,22A MT VERNON ST Apt. 22A,42.358139,-71.065314
545,45 HOWE ST,42.3109245,-71.0653533
546,170 DORCHESTER ST,42.3337668,-71.0488086
547,SAYBROOK ST,42.3543356,-71.1470211
548,488 DORCHESTER AV Apt. 2-D,42.332024,-71.0566595
549,38 ROSECLAIR ST Apt. 2,42.3208875,-71.0591817
550,33 SLEEPER ST Apt. 401,42.3519914,-71.04889680000001
551,54 RUTLAND SQ Apt. 1,42.3422236,-71.0789483
552,44 ROUND HILL ST,42.3244716,-71.1057891
553,DORCHESTER AV,42.3078999,-71.0583676
554,28 BOSTON ST Apt. 2,42.3284597,-71.0574266
555,613 DORCHESTER AV Apt. 1,42.3287134,-71.05712720000001
556,857 BEACON ST Apt. 31,42.346667,-71.1038009
557,2 BATTERY WHARF ST,42.366869,-71.0514946
558,27 MT VERNON ST Apt. 27-3,42.32177799999999,-71.05796
559,118 RADCLIFFE ST,42.2975387,-71.0777027
560,69 ROMSEY ST,42.3155941,-71.0533286
561,2 ARAMON ST,42.3661046,-71.03100300000001
562,32 BOSTON ST,42.328308,-71.057496
563,104 WILMINGTON AV,42.2799372,-71.0749636
564,28 WACHUSETT ST,42.2966518,-71.1126132
565,10 ROSECLAIR ST,42.32110369999999,-71.0607557
566,31 BENNINGTON ST,42.375196,-71.03758909999999
567,39 FALCON ST,42.381791,-71.03798499999999
568,1313 WASHINGTON ST Apt. PS U70,42.3419965,-71.06837759999999
569,151 TREMONT ST Apt. 15-P,42.3544424,-71.0633683
570,6 MAYHEW ST Apt. 2,42.3220253,-71.060734
571,14 MILES ST,42.3185633,-71.0998935
572,282 MAVERICK ST,42.3676249,-71.0328067
573,20 CUSHING AV,42.3157998,-71.0640998
574,1313 WASHINGTON ST Apt. 601,42.3422378,-71.06853749999999
575,5 WALLACE CT,42.3751853,-71.0596079
576,5 VINSON ST,42.29886070000001,-71.0643319
577,100 BEACON ST Apt. GPS-8,42.3552678,-71.07396539999999
578,670 COLUMBIA RD,42.3195122,-71.06321770000001
579,89 MORA ST,42.281893,-71.07536979999999
580,20 WORLEY ST,42.2916687,-71.1619446
581,145 PINCKNEY ST Apt. 630,42.3590978,-71.0715924
582,427 BORDER ST Apt. 5,42.38223989999999,-71.0401001
583,1 FRANKLIN ST Apt. 4210,42.3563166,-71.0595573
584,24 CHISWICK RD Apt. 24-A3,42.3385261,-71.1508855
585,106 PLEASANT ST,42.3120354,-71.0588071
586,160 COMMONWEALTH AV Apt. 607,42.3512759,-71.07864789999999
587,1313 WASHINGTON ST Apt. PS S6B,42.3420302,-71.0684375
588,13 ROGERS ST Apt. 13,42.3296663,-71.0556289
589,17 COMMONWEALTH AV Apt. PS-2,42.3536991,-71.0732435
590,116 BOSTON ST,42.3255478,-71.0587606
591,45 HARVEST ST Apt. 1,42.3233543,-71.0586496
592,7 HERBERTSON RD,42.2919586,-71.1163909
593,42 EIGHTH ST Apt. 1103,42.3749988,-71.0520878
594,116 NEPONSET AV,42.2946433,-71.05226069999999
595,21 BRADWOOD ST,42.28574769999999,-71.1448748
596,6 BELFORT ST,42.3154277,-71.05610759999999
597,25 SAVOY ST Apt. PS-269,42.3417631,-71.06728559999999
598,39 GRANGER ST,42.3022554,-71.0578412
599,137 BOWDOIN ST,42.3034466,-71.07108149999999
600,51 BUTTONWOOD ST,42.320944,-71.0556904
601,5 ORIENT AV,42.3899642,-70.99928249999999
602,26 TAYLOR ST,42.3438691,-71.068296
603,19 BENNINGTON ST,42.3750651,-71.0379225
604,215 ORIENT AV,42.3912753,-71.0086621
605,24 RAWSON ST Apt. 3,42.3260097,-71.05793899999999
606,24 BUCHANAN RD,42.2954355,-71.13582319999999
607,211 BOLTON ST,42.3385421,-71.04766430000001
608,32 DORSET ST,42.3236804,-71.05848209999999
609,1313 WASHINGTON ST Apt. PS S5B,42.3420302,-71.0684375
610,22 LIBERTY DR Apt. 12A,42.35459720000001,-71.0452732
611,23 RALDNE RD,42.255249,-71.14069719999999
612,10 MELLEN ST,42.285708,-71.06763699999999
613,12 ALLENWOOD ST,42.2834259,-71.14849540000002
614,125 SHIRLEY ST,42.3252604,-71.0686032
615,1084 SARATOGA ST,42.3856129,-71.0033223
616,47 HALL ST,42.3046877,-71.1127176
617,191 W EIGHTH ST Apt. UN-4,42.3335003,-71.0521098
618,15 HALLOWELL ST,42.2711724,-71.1009612
619,22 MAYHEW ST,42.3217562,-71.0598285
620,24A MT VERNON ST Apt. 24A,42.32220299999999,-71.0578785
621,136 SHAWMUT AV Apt. PS-8,42.345897,-71.065861
622,10 DEWEY ST,42.316968,-71.0774706
623,277 BEACON ST Apt. 1-B,42.3530941,-71.08012149999999
624,257 E COTTAGE ST Apt. 1,42.31839790000001,-71.0581636
625,101 MOSS HILL RD,42.3079864,-71.1250539
626,8 WHITTIER PL Apt. 15C-8,42.3654839,-71.06728
627,8 MARYLAND ST,42.311761,-71.055031
628,232 RIVER ST,42.2711871,-71.08076679999999
629,20 CEDAR ST Apt. 2,42.3768032,-71.0621649
630,26 STILLMAN ST Apt. 5-2,42.3636899,-71.05695639999999
631,17 DYER ST,42.282931,-71.079898
632,17 HARVEST ST Apt. 2,42.3229788,-71.0577717
633,67 TEMPLE ST,42.3598198,-71.0637447
634,78 EVERDEAN ST,42.2984451,-71.0505893
635,98 CHESTNUT ST Apt. 4,42.3566221,-71.07082729999999
636,2 HAWTHORNE PL Apt. 386,42.3642406,-71.066169
637,29 VAN WINKLE ST,42.2822939,-71.0637284
638,8 BYRD AV,42.2860691,-71.1144236
639,2 BATTERY WHARF Apt. 3308,42.3671015,-71.0504206
640,325 COLUMBUS AV Apt. 11,42.346376,-71.0750281
641,W SELDEN ST,42.2768078,-71.08640059999999
642,1 FRANKLIN ST Apt. 1007,42.3563166,-71.0595573
643,5 HANCOCK ST Apt. 1,42.3609376,-71.0646575
644,345 D ST,42.3404525,-71.04852319999999
645,124 SUTHERLAND RD Apt. 15,42.3403504,-71.14842879999999
646,66 ROUND HILL ST,42.3246607,-71.1075532
647,1148 DORCHESTER AV,42.311566,-71.0573098
648,869 DORCHESTER AV,42.3210689,-71.05701789999999
649,452 PARK DR Apt. 3,42.3454324,-71.1049287
650,1501 COMMONWEALTH AV Apt. 307,42.3475081,-71.14138659999999
651,43 ST MARGARET ST Apt. 2,42.3214433,-71.0585838
652,26 MT VERNON ST Apt. 3,42.3582361,-71.0654715
653,42 EIGHTH ST Apt. 3301,42.3749988,-71.0520878
654,772 E FOURTH ST Apt. PS-C,42.3349826,-71.03271389999999
655,125 METROPOLITAN AV,42.2793326,-71.1303806
656,33 COMMERCIAL WHARF EAST Apt. 33-1,42.3620889,-71.0499182
657,44 MONTCLAIR AV,42.2909387,-71.1419505
658,4 MANNING ST,42.2799136,-71.1139216
659,144 WARREN AV Apt. 1,42.3439065,-71.07487119999999
660,31 MAYHEW ST,42.3212312,-71.05936419999999
661,308 NORWELL ST,42.2918374,-71.07695989999999
662,170 COMMERCIAL ST,42.362713,-71.0522027
663,47 HARVARD ST Apt. 93,42.3731072,-71.0629646
664,3706 WASHINGTON ST,42.30035729999999,-71.1129845
665,8 FOSSDALE RD,42.2853447,-71.0598285
666,415 W FOURTH ST,42.3357838,-71.04842599999999
667,4 POWERS CT,42.36588,-71.0519
668,17 ST WILLIAM ST,42.3145951,-71.05574279999999
669,296 NEPONSET AV,42.2892021,-71.04738569999999
670,216 FLORENCE ST Apt. 3D,42.28612469999999,-71.120149
671,246 BOSTON ST Apt. 6,42.32137609999999,-71.0610236
672,25 MT VERNON ST Apt. #1 1,42.3218562,-71.0581531
673,505 SHAWMUT AV Apt. 2,42.3381632,-71.0772313
674,50 OAKWOOD ST,42.26811499999999,-71.1089342
675,33 STORY ST Apt. 1,42.3332944,-71.04281379999999
676,135 NEPONSET AV Apt. 31,42.2937139,-71.0521306
677,46 DORSET ST,42.3238498,-71.0590392
678,22 CHIPMAN ST,42.288086,-71.07436
679,833 DORCHESTER AV,42.3222752,-71.0569964
680,62 CHESTNUT ST,42.3570484,-71.0690674
681,575 POPLAR ST,42.2708171,-71.1322374
682,352 BEACON ST Apt. 2,42.3524682,-71.0846322
683,42 TEMPLE ST,42.2734308,-71.07278149999999
684,8 CONCORD ST,42.3774851,-71.0612329
685,63 PAUL GORE ST Apt. 3,42.3193713,-71.1082108
686,54 DORSET ST,42.32394250000001,-71.05936419999999
687,87 ROSECLAIR ST Apt. 2,42.3213361,-71.0571207
688,8 WASHBURN ST Apt. 13-3,42.3253205,-71.0572637
689,16 ROSECLAIR ST,42.3210301,-71.06058449999999
690,37 COFFEY ST Apt. 1,42.2886037,-71.0496259
691,314 W SECOND ST Apt. 311,42.3390786,-71.0472042
692,59 BRAINERD RD Apt. 402,42.34804829999999,-71.132825
693,97 SURREY ST Apt. 2,42.3511462,-71.15735459999999
694,8 HOWELL ST Apt. 1,42.32474089999999,-71.0570788
695,248HF BUNKER HILL ST,42.3796619,-71.0640786
696,34 ROSECLAIR ST,42.3208835,-71.05950349999999
697,61 W MILTON ST Apt. 61A,42.239155,-71.1392582
698,637 E FIRST ST Apt. 105,42.3379181,-71.0340093
699,51 GATES ST,42.3321453,-71.0484187
700,14 WASHBURN ST,42.32541579999999,-71.0575535
701,15 WATERLOO ST,42.2432242,-71.13299169999999
702,28 ALBION PL Apt. 2,42.3816399,-71.0696739
703,656HF E SECOND ST,42.3373555,-71.0333902
704,246 BOSTON ST Apt. 4,42.32137609999999,-71.0610236
705,8 WHITTIER PL Apt. 15B-8,42.3654839,-71.06728
706,9 BEACON ST,42.35845,-71.0617905
707,33 WASHBURN ST Apt. 1,42.3258954,-71.0581825
708,107 SHERIDAN ST,42.3191761,-71.10629399999999
709,ALTAIR RD,42.26511379999999,-71.1574025
710,96 GRAMPIAN WY,42.3113015,-71.04733929999999
711,73 MELVILLE AV,42.2949213,-71.06498189999999
712,155 BOSTON ST Apt. 1,42.3244691,-71.05990229999999
713,16 MINER ST Apt. 303,42.3464327,-71.1027221
714,2 ST ANDREW RD,42.38557360000001,-71.00504029999999
715,70 ROSECLAIR ST,42.32110720000001,-71.05820349999999
716,96 GAINSBOROUGH ST Apt. 306W,42.3422831,-71.0891999
717,8 JOSEPHINE ST,42.3004947,-71.0656319
718,68 TELEGRAPH ST Apt. 68-2,42.3331223,-71.0477803
719,761 HARRISON AV,42.3373043,-71.0731297
720,167 CONDOR ST,42.38239799999999,-71.03401699999999
721,23 ROSELAND ST,42.2909592,-71.0635427
722,4517 WASHINGTON ST,42.2786504,-71.1368583
723,8 HOWELL ST,42.32474089999999,-71.0570788
724,135 NEPONSET AV Apt. 33,42.2937139,-71.0521306
725,237 EUSTIS ST Apt. 1,42.3270041,-71.07552009999999
726,25 MT VERNON ST Apt. #5 3RD,42.3810374,-71.0800593
727,26 SEMONT RD,42.2910003,-71.0618248
728,106 BOSTON ST Apt. 2,42.3259438,-71.05857990000001
729,9 WHIPPLE AV,42.2913063,-71.1207541
730,6 CHARLES ST,42.3005326,-71.0608499
731,770 COLUMBIA RD Apt. 2,42.3203665,-71.0585653
732,11 BLOOMFIELD ST,42.2997907,-71.066514
733,40 DACIA ST,42.3154876,-71.0772848
734,332 TALBOT AV,42.2905355,-71.0725999
735,6 HATCH ST Apt. 2,42.3311916,-71.0358171
736,34 HOWARD AV,42.3191801,-71.07249139999999
737,1128 SARATOGA ST,42.3848069,-71.0010006
738,148 NONANTUM ST,42.349928,-71.17379199999999
739,145 BRAYTON RD,42.3496788,-71.1734207
740,15 OAKRIDGE ST,42.2776007,-71.0747779
741,29 BENNINGTON ST,42.3751828,-71.0377282
742,356 GALLIVAN BL Apt. 358,42.2808878,-71.06327139999999
743,23 OAKLEY ST,42.3015529,-71.0700888
744,9 BLOOMFIELD ST,42.2998333,-71.0663283
745,9 GREEN HILL ST,42.2985908,-71.05100709999999
746,27 SHERRIN ST,42.2711103,-71.1250539
747,70 BOLTON ST,42.3415557,-71.0520231
748,111 SHERIDAN ST Apt. PS- 5,42.3190661,-71.1061141
749,136 SHAWMUT AV Apt. 8-B,42.345897,-71.065861
750,114 ELMER RD,42.2870938,-71.0565785
751,626 E FOURTH ST,42.3348102,-71.0395739
752,12A EVERDEAN ST,42.3006992,-71.0502563
753,11 LORING PL,42.2477798,-71.12144479999999
754,66 MUNROE ST,42.3182203,-71.0869877
755,44 MAPLE ST,42.2544567,-71.1221527
756,36 AINSWORTH ST,42.2887474,-71.1406508
757,87 SCHOOL ST Apt. 2,42.3789727,-71.06328669999999
758,87 KING ST,42.2931703,-71.0562535
759,162 BEECH ST,42.2831327,-71.1443642
760,30 DORSET ST,42.3236273,-71.0583892
761,125 PARK DR Apt. 125-12,42.3418089,-71.0976903
762,101 PERHAM ST,42.2832144,-71.1643234
763,39 OLD HARBOR ST Apt. 2,42.3334612,-71.0477269
764,817 DORCHESTER AV,42.323063,-71.05704279999999
765,253 COREY ST,42.2912953,-71.1602388
766,145 PINCKNEY ST Apt. 215,42.3590978,-71.0715924
767,57 MARLBOROUGH ST Apt. 6,42.354094,-71.0750425
768,10 RUNNING BROOK RD,42.2639383,-71.150677
769,14 MARYLAND ST,42.311492,-71.055142
770,20 WINFIELD ST Apt. 2,42.3316287,-71.0423929
771,38 MAYHEW ST,42.3214118,-71.0588999
772,2 BATTERY WHARF Apt. 3502,42.3671015,-71.0504206
773,62 GREATON RD,42.2901238,-71.1513732
774,211 W SELDEN ST,42.274336,-71.0889839
775,132 BOSTON ST Apt. 2,42.3248925,-71.0590496
776,ALKYRIS RD,42.3600825,-71.0588801
777,88 SYCAMORE ST,42.2842886,-71.1255297
778,24 RAWSON ST,42.3260099,-71.057959
779,38 ROSECLAIR ST Apt. 3,42.3208875,-71.0591817
780,804 CENTRE ST Apt. 208,42.3085144,-71.1177052
781,43 ST MARGARET ST Apt. 1,42.3214433,-71.0585838
782,197 EIGHTH ST Apt. 525,42.3733848,-71.0519798
783,60 NORWELL ST,42.3005664,-71.07867759999999
784,6 MALVERNA RD,42.2786654,-71.1294638
785,757 E SEVENTH ST Apt. 3,42.3321566,-71.0296109
786,40 CUSHMAN RD,42.3539168,-71.1467779
787,9 LENNON CT Apt. 8,42.3330016,-71.026591
788,6 DORSET ST Apt. 2,42.3233237,-71.0573434
789,55 ESMOND ST,42.2979305,-71.0845736
790,256 BEACON ST Apt. PS-2,42.35368860000001,-71.0801048
791,20 UNION WH Apt. 20,42.3600825,-71.0588801
792,1 HUNTINGTON AV Apt. 604,42.3486909,-71.0782388
793,3 IRWIN AV,42.3213266,-71.07762340000001
794,180 CHISWICK RD,42.3414513,-71.156247
795,26 MT VERNON ST Apt. 2,42.3582361,-71.0654715
796,828 RIVER ST,42.2629593,-71.1073211
797,424 ASHMONT ST Apt. 1,42.2882773,-71.05577079999999
798,5 UNION PARK ST Apt. 1,42.3420171,-71.07044499999999
799,HARBOR VIEW ST,42.31712,-71.0543363
800,11 WAYNE ST,42.3074834,-71.0855717
801,290 COLUMBUS AV Apt. 7,42.3466516,-71.07377
802,24 CUSTER ST,42.3071926,-71.11683529999999
803,84 ROSECLAIR ST Apt. 2,42.3213851,-71.0575289
804,6 HOWELL ST,42.3247369,-71.0572749
805,11 KING ST,42.2918562,-71.06147419999999
806,45 GROVELAND ST,42.2732912,-71.077192
807,30 WENDOVER ST,42.3190009,-71.0660961
808,5 MT VERNON ST,42.3224911,-71.059782
809,5 ALKYRIS RD,42.3600825,-71.0588801
810,371 MAVERICK ST,42.3658892,-71.029603
811,34 OLDFIELDS RD,42.3073473,-71.0790026
812,59 ROCKNE AV,42.27988149999999,-71.0522723
813,96 DIX ST,42.2963639,-71.0574374
814,76 BRENTWOOD ST,42.360447,-71.13319
815,381 BUNKER HILL ST Apt. 2,42.382295,-71.0689399
816,8 HOWELL ST Apt. 5,42.32474089999999,-71.0570788
817,7 SEDALIA RD,42.2859095,-71.05704279999999
818,5 MT VERNON ST Apt. 3,42.3224318,-71.0598128
819,48 MELROSE ST,42.3489316,-71.0688701
820,5 DORSET ST Apt. 1,42.3236744,-71.0572189
821,86 GLENVILLE AV Apt. 12,42.3490242,-71.1352951
822,32 MONTMORENCI AV,42.3916196,-71.0082907
823,100 BEACON ST Apt. 1C,42.3552678,-71.07396539999999
824,113 L ST Apt. 113,42.3337611,-71.03549509999999
825,52 N ST,42.3369243,-71.03104239999999
826,29 JUNIPER ST,42.3252611,-71.0886221
827,10 HARVEST ST Apt. 10-1,42.3224713,-71.0572749
828,32 MAYHEW ST,42.3216026,-71.05936419999999
829,8 WHITTIER PL Apt. B101-8,42.3654839,-71.06728
830,117 WINTHROP ST,42.3236614,-71.07675100000002
831,67 WALWORTH ST Apt. 2,42.2852026,-71.1377973
832,299 CHESTNUT AV,42.312756,-71.1102921
833,2 DAVID RD,42.3060045,-71.1282569
834,31 MT VERNON ST Apt. 3,42.3216636,-71.05769719999999
835,17 COMMONWEALTH AV Apt. 2,42.3536918,-71.0732329
836,16 MARYLAND ST,42.3114246,-71.0552321
837,11 BARTLETT ST,42.3774121,-71.06175089999999
838,109 D ST Apt. 2,42.3353257,-71.0546622
839,155 E COTTAGE ST,42.3207196,-71.06289269999999
840,297 K ST Apt. 1,42.33342589999999,-71.0376181
841,609 DORCHESTER AV Apt. R-2,42.3288097,-71.0571157
842,56 MONADNOCK ST,42.31551109999999,-71.06904420000001
843,83 CAMBRIDGE ST Apt. 3,42.3829613,-71.0777538
844,186 PERHAM ST,42.2854235,-71.1674796
845,220 BOYLSTON ST Apt. 1220,42.3520492,-71.06830819999999
846,49 WINSHIP ST,42.3468639,-71.1522552
847,1 VICTORIA ST,42.3157112,-71.0572749
848,37 WACHUSETT ST Apt. 2,42.2966038,-71.1132283
849,25 MT VERNON ST Apt. #3 2,42.3810374,-71.0800593
850,403 CHELSEA ST,42.3795897,-71.0271945
851,42 AUCKLAND ST,42.3133241,-71.0556964
852,3968 WASHINGTON ST,42.2931794,-71.1205976
853,64 ALLSTON ST Apt. 5,42.3511495,-71.13553569999999
854,6 WHITTIER PL Apt. B-103,42.3656073,-71.0673891
855,39 MT VERNON ST Apt. 3L,42.32158280000001,-71.0571293
856,1 GLOVER PL,42.3085112,-71.06004399999999
857,628 CANTERBURY ST Apt. 628,42.2865405,-71.1101778
858,58 PORT NORFOLK ST,42.2914779,-71.04069989999999
859,87 SEARLE RD,42.2729703,-71.1493309
860,48 ORIOLE ST,42.2797652,-71.1505842
861,251 HEATH ST Apt. 511,42.3277948,-71.10839829999999
862,57 BOLTON ST,42.3416617,-71.052441
863,277 SILVER ST Apt. 1,42.33622680000001,-71.0479714
864,21HF MT VERNON ST,42.3580158,-71.0685149
865,1024 DORCHESTER AV,42.31570199999999,-71.05642499999999
866,15 NEWBURG ST Apt. 1,42.28594469999999,-71.13865109999999
867,28 MT VERNON ST Apt. 5,42.322146,-71.0574692
868,533 COLUMBUS AV,42.3419063,-71.0805336
869,19 CLAREMONT PK Apt. 3,42.3423757,-71.08117639999999
870,19 MT VERNON ST,42.3756297,-71.0585169
871,25 ROSECLAIR ST,42.3206603,-71.0601535
872,10 WHITMAN ST,42.2874304,-71.0770527
873,47 W WALNUT PK,42.3177016,-71.0991971
874,90 MARLBOROUGH ST Apt. PS-2,42.3533321,-71.07603259999999
875,134 BOSTON ST,42.324826,-71.059106
876,15HF MT VERNON ST Apt. 1,42.3204064,-71.0498041
877,4511 WASHINGTON ST,42.278783,-71.13680099999999
878,618 ADAMS ST,42.2886636,-71.055325
879,270 BUNKER HILL ST Apt. 4,42.37985339999999,-71.06494490000001
880,4 CHARLESGATE EAST Apt. 206,42.3500855,-71.0913171
881,140 WOOD AV,42.2694243,-71.1105644
882,28 MT VERNON ST Apt. 2,42.322146,-71.0574692
883,5 MOODY ST,42.2869117,-71.07227089999999
884,71 MT VERNON ST,42.3584701,-71.06676039999999
885,30 BOSTON ST,42.328377,-71.057463
886,39 MASSASOIT ST,42.2623063,-71.1008684
887,126 BOSTON ST,42.3251789,-71.0589928
888,39 GREENWICH ST,42.3356183,-71.08397939999999
889,256 BEACON ST Apt. 2,42.35368860000001,-71.0801048
890,22 HALFORD RD,42.2901496,-71.14868109999999
891,939 ADAMS ST,42.2792726,-71.0595127
892,1 HARVEST TE,42.37380659999999,-71.06240439999999
893,36 TENNYSON ST,42.2770867,-71.1497022
894,234 MAPLE ST,42.29364080000001,-71.159821
895,SYDNEY ST,42.3162303,-71.0525907
896,22 DORSET ST,42.3236751,-71.05810090000001
897,27 WASHBURN ST Apt. 5,42.3258236,-71.0579183
898,373 BORDER ST Apt. 375,42.3799661,-71.03993609999999
899,68 BALDWIN ST Apt. 02,42.3823183,-71.0702513
900,62 FAIRMOUNT ST,42.28055560000001,-71.0736869
901,24 RAWSON ST Apt. PS-18,42.3260099,-71.057959
902,5 MT VERNON ST Apt. 1,42.3224318,-71.0598128
903,579 E BROADWAY,42.3353276,-71.0410249
904,10 WASHBURN ST,42.3253841,-71.0573678
905,84 G ST Apt. 2,42.3330644,-71.0439373
906,28 HARVEST ST,42.3227931,-71.0581803
907,12 KILSYTH TE Apt. 12-11,42.3386228,-71.1475246
908,47 HARVARD ST Apt. A-308,42.373074,-71.063164
909,2 AVERY ST Apt. 37B,42.3528703,-71.0629976
910,529 COLUMBUS AV,42.3419147,-71.0804168
911,30 RAWSON ST,42.326084,-71.05820349999999
912,27 WASHBURN ST Apt. 7,42.3258236,-71.0579183
913,893 E SECOND ST Apt. PS-2,42.337234,-71.02751099999999
914,1 KEENAN RD,42.353899,-71.151058
915,30 NONANTUM ST,42.3495301,-71.1688257
916,30 HOWELL ST Apt. 1,42.32500659999999,-71.0583779
917,427 S HUNTINGTON AV Apt. 1,42.3200639,-71.1121515
918,760 E SIXTH ST,42.3333178,-71.029928
919,142 COMMERCIAL ST Apt. 303,42.3622819,-71.0526467
920,42 HIGHLAND ST Apt. 42,42.328421,-71.091769
921,5 POND CI,42.3128773,-71.1236613
922,772 CENTRE ST,42.30905449999999,-71.1160483
923,190 BOSTON ST,42.32323100000001,-71.0601999
924,6 MAYHEW ST,42.3220262,-71.060757
925,17 ROSECLAIR ST Apt. 3,42.3207839,-71.0607364
926,1810 DORCHESTER AV Apt. 1,42.2888807,-71.0632048
927,398 MARLBOROUGH ST,42.35015509999999,-71.0881397
928,160 COMMONWEALTH AV Apt. 603,42.3512759,-71.07864789999999
929,1313 WASHINGTON ST Apt. 404,42.3422378,-71.06853749999999
930,498 E SIXTH ST,42.333214,-71.04069199999999
931,55 FARRAGUT RD,42.3362969,-71.0254242
932,20 BRADFIELD AV,42.2884173,-71.1386258
933,46 MAYHEW ST Apt. A,42.3212132,-71.0583892
934,10 MARYLAND ST,42.311667,-71.05507
935,166 BOSTON ST Apt. 2,42.3238887,-71.05972160000002
936,1758 COMMONWEALTH AV Apt. 11,42.3407852,-71.14984120000001
937,144 WARREN AV Apt. PS,42.343927,-71.074882
938,735 THIRD ST Apt. 3,42.33634139999999,-71.0299454
939,59 SALEM ST Apt. 59F-2,42.3631409,-71.0560424
940,98 EDGEMERE RD,42.2594115,-71.15183739999999
941,1 AVERY ST Apt. 16E,42.3534171,-71.06251
942,WOODLAND RD,42.3102969,-71.1267594
943,17 WASHBURN ST Apt. 2,42.3257258,-71.05756199999999
944,89 GOODENOUGH ST,42.354133,-71.15411
945,7 LAWSON PL,42.3799569,-71.02850029999999
946,596 ADAMS ST,42.289538,-71.055589
947,59 CHARLEMONT ST,42.2861464,-71.05212139999999
948,397 BOWDOIN ST,42.3100077,-71.062818
949,1 FRANKLIN ST Apt. 5303,42.3563166,-71.0595573
950,69 WOODLEY AV,42.2642257,-71.1503985
951,1251 ADAMS ST Apt. F101,42.2712818,-71.068187
952,10 CUSHING AV,42.3163778,-71.0646569
953,17 ROSECLAIR ST Apt. 1,42.3207839,-71.0607364
954,156 PORTER ST Apt. 251,42.3713905,-71.0324272
955,156 PORTER ST Apt. 309,42.3713905,-71.0324272
956,62 WELLINGTON HILL ST,42.2810444,-71.09562249999999
957,8 HOWELL ST Apt. 3,42.32474089999999,-71.0570788
958,40 FAY ST Apt. H-503,42.34313789999999,-71.066272
959,22 LIBERTY DR Apt. B1-80,42.3545427,-71.0452696
960,65 E INDIA RO Apt. 39D,42.3576699,-71.0504859
961,14 CLARENDON ST Apt. 202,42.3445419,-71.0725635
962,25 MAYHEW ST,42.321313,-71.05983499999999
963,26 CEDAR ST,42.2723021,-71.07540469999999
964,19 ST MARGARET ST,42.3219206,-71.05992130000001
965,23 ST MARGARET ST,42.3217908,-71.0595963
966,1313 WASHINGTON ST Apt. PS S6A,42.3420302,-71.0684375
967,438 RIVER ST,42.2689711,-71.09153719999999
968,24 CHISWICK RD Apt. 24-A2,42.3385261,-71.1508855
969,67 BEECH ST,42.2851632,-71.1482169
970,579 TRUMAN HW,42.2547045,-71.11677949999999
971,44 HILLIS RD,42.2493957,-71.1325275
972,150 ORLEANS ST Apt. 502,42.3702907,-71.0362555
973,30 CHESTNUT ST Apt. 3,42.374698,-71.0592267
974,119 SARATOGA ST,42.3767605,-71.0355113
975,361 SAVIN HILL AV,42.3127698,-71.0504964
976,48 HARVEST ST Apt. 2,42.3230021,-71.0590028
977,1313 WASHINGTON ST Apt. PS L99,42.3420302,-71.0684375
978,4509 WASHINGTON ST,42.2788639,-71.1367516
979,329 BEACON ST Apt. 1,42.3524702,-71.0824382
980,99 CLAYBOURNE ST Apt. 99,42.2961679,-71.0714335
981,35 RUTHERFORD AV Apt. 2,42.37204879999999,-71.0636396
982,377 DORCHESTER ST,42.3303288,-71.05594409999999
983,104 LONSDALE ST,42.29128499999999,-71.058487
984,87 DIX ST,42.2958011,-71.05762310000001
985,CROYDON ST,42.272023,-71.104552
986,41 GREENWICH ST,42.3356429,-71.0840285
987,33 WASHBURN ST Apt. 3,42.3258954,-71.0581825
988,1313 WASHINGTON ST Apt. PS L10,42.3420302,-71.0684375
989,180 SYDNEY ST,42.31772780000001,-71.0527482
990,28 MT VERNON ST,42.3220878,-71.0575303
991,16 MT VERNON ST,42.3583743,-71.0647178
992,94 TRENTON ST,42.3792136,-71.03591759999999
993,1026 DORCHESTER AV,42.3156419,-71.056393
994,6B ESTEY ST Apt. 15-68,42.3279852,-71.107833
995,45 W BROADWAY Apt. PH2,42.3421593,-71.0562769
996,512 MASSACHUSETTS AV Apt. 1,42.3392099,-71.079826
997,8 WASHBURN ST Apt. 15-2,42.3253205,-71.0572637
998,54 N ST,42.336824,-71.03098899999999
999,5 CEDAR ST Apt. 2,42.376301,-71.0621185
1000,8 WASHBURN ST Apt. 11-2,42.3253205,-71.0572637
1001,29 HECLA ST,42.30702720000001,-71.0601535
1002,141 B ST,42.3418835,-71.0524975
1003,15HF MT VERNON ST Apt. 3,42.3580158,-71.0685149
1004,11 HOWELL ST Apt. 11-3,42.3251216,-71.05737529999999
1005,19 HARVEST ST,42.32302809999999,-71.05792490000002
1006,89 EVERDEAN ST,42.2978982,-71.05086779999999
1007,11 MARION ST Apt. 5C,42.28722680000001,-71.1198737
1008,19 CASPAR ST,42.2907383,-71.1657158
1009,67 SALEM ST,42.3633326,-71.05588209999999
1010,11 VINSON ST,42.2986694,-71.0645176
1011,RAWSTON RD,42.2780859,-71.12936119999999
1012,467 SHAWMUT AV,42.3389951,-71.0758536
1013,36 BEACON ST,42.3572407,-71.0655076
1014,26 BOSTON ST Apt. 2,42.3285292,-71.0573951
1015,79 MYRTLE ST Apt. 4,42.3594117,-71.0672489
1016,BULLARD ST,42.3021982,-71.0736422
1017,15 CENTRE CT,42.29554520000001,-71.05732139999999
1018,17 TWOMEY CT Apt. 55,42.3336546,-71.02533869999999
1019,6 BEAUFORT RD Apt. 6-1,42.3164565,-71.1141186
1020,42 WASHBURN ST,42.3257389,-71.0585749
1021,74 ROSECLAIR ST,42.3212453,-71.05792490000002
1022,3 JERUSALEM PL,42.364616,-71.05589499999999
1023,99 SHERIDAN ST Apt. 103,42.3194076,-71.10632
1024,1313 WASHINGTON ST Apt. PS U72,42.3419965,-71.06837759999999
1025,7 WOODBOURNE RD,42.2915004,-71.1133559
1026,379 BOWDOIN ST,42.3097748,-71.0634614
1027,21 MT VERNON ST,42.3584876,-71.0645261
1028,15 HILTON ST,42.2615706,-71.1201334
1029,33 REVERE ST,42.3597247,-71.0674536
1030,33 MONTCLAIR AV,42.2904115,-71.1420201
1031,35 COTTAGE ST Apt. 35-1,42.3665961,-71.03591890000001
1032,92 MANTHORNE RD,42.2901115,-71.15239439999999
1033,2 BATTERY WHARF Apt. 4311,42.3671015,-71.0504206
1034,16 CHAPPIE ST,42.3828025,-71.0690674
1035,556 COMMERCIAL ST Apt. 2,42.3681586,-71.0563863
1036,45 HANO ST,42.355719,-71.137513
1037,27 VINSON ST,42.29834,-71.06498189999999
1038,35 GLENCOE ST Apt. 17,42.3543742,-71.1488195
1039,33 ST MARGARET ST,42.3216293,-71.0590856
1040,14 BRADFORD ST Apt. 1,42.3425889,-71.06915219999999
1041,106 ROSSMORE RD Apt. 3,42.3031904,-71.104587
1042,467 WELD ST,42.2930686,-71.15141969999999
1043,9 DORSET ST,42.3237738,-71.0575071
1044,154 BOYLSTON ST,42.3162864,-71.10275349999999
1045,6 CLEMENT AV,42.2839363,-71.1482169
1046,108 PERKINS ST Apt. 1,42.3209388,-71.1151989
1047,1568 COMMONWEALTH AV Apt. 1568-B,42.3438642,-71.1422243
1048,1313 WASHINGTON ST Apt. PS S5A,42.3420302,-71.0684375
1049,164 ASHMONT ST Apt. 2,42.2857949,-71.0647292
1050,CLAYTON ST,42.3025323,-71.0563356
1051,43 HOWELL ST,42.3254443,-71.0588071
1052,102 BOSTON ST Apt. 3,42.3260694,-71.0585218
1053,15 PARAGON RD,42.2704782,-71.16399849999999
1054,39 EDISON GREEN,42.3194884,-71.0589463
1055,15 HOWELL ST Apt. 2,42.3251675,-71.05757539999999
1056,2 CHESTNUT ST,42.3576704,-71.066189
1057,206 E EAGLE ST,42.38154,-71.033103
1058,486 COLUMBUS AV Apt. 1,42.342685,-71.0787483
1059,8 WASHBURN ST Apt. 11-3,42.3253205,-71.0572637
1060,3940 WASHINGTON ST,42.293945,-71.11985489999999
1061,700 HARRISON AV Apt. 308,42.3383302,-71.0702965
1062,48 PROSPECT ST,42.2474151,-71.1120909
1063,21 DANNY RD,42.24133459999999,-71.1376336
1064,72 ROSECLAIR ST,42.3211576,-71.05806419999999
1065,106 BOSTON ST Apt. 3,42.3259438,-71.05857990000001
1066,32 COTTON ST,42.2912618,-71.1299164
1067,10 CHELSEA ST,42.3703718,-71.03850609999999
1068,15 RIDGE ST,42.2857956,-71.1208413
1069,35 RAWSON ST,42.3263969,-71.0582964
1070,63 CUSHING AV,42.3143055,-71.06470329999999
1071,55 ROSECLAIR ST,42.3207078,-71.0585411
1072,5 CRANE ST,42.27028780000001,-71.1171624
1073,3 APPLETON ST Apt. 301,42.3467201,-71.069661
1074,12 CROCKETT AV,42.2800008,-71.0516107
1075,74 F ST,42.3352559,-71.0499107
1076,21 SYDNEY ST,42.3122788,-71.0531661
1077,65 BEACH ST,42.351112,-71.06011860000001
1078,24 LAWTON ST,42.2351185,-71.12826849999999
1079,30 CLAREMONT PK,42.3422757,-71.08175330000002
1080,30 AUBURN ST,42.3812389,-71.0692531
1081,21 BENNINGTON ST,42.3751068,-71.03792659999999
1082,689 WASHINGTON ST,42.351525,-71.063154
1083,15 ST MARGARET ST,42.3220663,-71.0603392
1084,83 COWING ST,42.2745141,-71.149006
1085,8 WASHBURN ST Apt. 13-2,42.3253205,-71.0572637
1086,24 RAWSON ST Apt. 1,42.3260097,-71.05793899999999
1087,75 WESTGLOW ST,42.2899697,-71.05100709999999
1088,1313 WASHINGTON ST Apt. PS S12,42.3420302,-71.0684375
1089,46 ADAMS ST Apt. B-4,42.3071732,-71.0619873
1090,100 POND ST Apt. 2,42.313689,-71.1186163
1091,70 SANFORD ST,42.273289,-71.075189
1092,70 HARRIET ST,42.3531904,-71.157361
1093,40 WALTER ST,42.2901773,-71.1333746
1094,1020 DORCHESTER AV,42.3158631,-71.0562071
1095,5 MARLOWE ST,42.298168,-71.0641926
1096,WASHINGTON ST,42.2936815,-71.1204151
1097,236 MINOT ST Apt. 236,42.2834711,-71.0567222
1098,15 MARYLAND ST,42.3116287,-71.0555571
1099,7 BELLFLOWER ST Apt. 3,42.3244502,-71.0575535
1100,66 PROSPECT ST,42.2467452,-71.11318179999999
1101,43 ST MARGARET ST Apt. 3,42.3214433,-71.0585838
1102,BURMAH ST,42.2642432,-71.097897
1103,636 BEACON ST Apt. 406,42.3495591,-71.0952817
1104,30 JAMAICAWAY ST Apt. 14,42.3308295,-71.1122546
1105,MANNING ST,42.2795071,-71.1147167
1106,WHITMAN ST,42.2867998,-71.0769881
1107,10 GLOVER CT,42.3308782,-71.0564857
1108,19 JOHNSON ST,42.2728383,-71.16344149999999
1109,BEACON ST,42.341483,-71.1243839
1110,53 HARVEST ST Apt. 2,42.3234459,-71.058983
1111,767 DORCHESTER AV Apt. 2,42.3243429,-71.05703849999999
1112,425 MERIDIAN ST,42.3811635,-71.0390748
1113,34 DIX ST,42.2957024,-71.0601999
1114,22 ST MARGARET ST Apt. 3,42.3220407,-71.05947259999999
1115,15 RIVER ST Apt. 402,42.3566153,-71.0699291
1116,8 AUCKLAND ST,42.3147678,-71.0552321
1117,14 ST MARGARET ST,42.3222528,-71.0600722
1118,75 LINDEN ST,42.3524533,-71.1309038
1119,39 MT VERNON ST Apt. 2L,42.32158280000001,-71.0571293
1120,18 HARLOW ST,42.3191637,-71.07227089999999
1121,65 CRAWFORD ST,42.3129706,-71.088009
1122,1852 HYDE PARK AV,42.2357169,-71.1323882
1123,4507 WASHINGTON ST,42.2790047,-71.1367052
1124,16 MEEHAN ST,42.3055889,-71.10707839999999
1125,16 DORSET ST Apt. 2,42.32349139999999,-71.0579593
1126,767 DORCHESTER AV,42.324363,-71.05704279999999
1127,23 HOWELL ST,42.32527229999999,-71.0580178
1128,96 BELNEL RD,42.2605922,-71.10346799999999
1129,18 ST MARGARET ST,42.32215679999999,-71.059782
1130,135 NEPONSET AV Apt. 23,42.2937139,-71.0521306
1131,104 BOSTON ST Apt. 3,42.3260042,-71.05855369999999
1132,217 GLENELLEN RD,42.2634371,-71.1643698
1133,6 ROSELAND ST,42.2910197,-71.0643319
1134,912 E FOURTH ST,42.3351055,-71.0267918
1135,18R MAYHEW ST,42.321889,-71.060074
1136,62 PINCKNEY ST Apt. 1,42.3587022,-71.0676854
1137,30 STORY ST Apt. 3,42.33349740000001,-71.0429383
1138,53 ROSECLAIR ST,42.3206665,-71.0586678
1139,857 BEACON ST,42.3466745,-71.103793
1140,102 BOSTON ST Apt. 2,42.3260694,-71.0585218
1141,134 FOSTER ST,42.3463541,-71.1577787
1142,95 HURON CI,42.3600825,-71.0588801
1143,110 STUART ST Apt. 20J,42.3509572,-71.06540380000001
1144,21 DORSET ST,42.3239908,-71.05834279999999
1145,35 I ST,42.3369291,-71.0401311
1146,24 RAWSON ST Apt. 4,42.3260097,-71.05793899999999
1147,609 DORCHESTER AV Apt. R-1,42.3288097,-71.0571157
1148,114 LONSDALE ST,42.291407,-71.058002
1149,427 MERIDIAN ST,42.38126,-71.039013
1150,151 TREMONT ST Apt. 23-C,42.3544424,-71.0633683
1151,30 HOWELL ST Apt. 2,42.32500659999999,-71.0583779
1152,22 WARD ST Apt. 2,42.3298193,-71.0545501
1153,11 MT VERNON ST,42.3223533,-71.05941059999999
1154,4975 WASHINGTON ST Apt. 211,42.2678445,-71.151211
1155,28 MT VERNON ST Apt. 3,42.322146,-71.0574692
1156,83 HIGHLAND ST,42.3270342,-71.09293
1157,9 ST MARGARET ST Apt. 2,42.3221388,-71.0605861
1158,116 WELLINGTON HILL ST,42.2839354,-71.096226
1159,4 PLEASANT ST,42.31842200000001,-71.0585749
1160,61 DWIGHT ST Apt. 1,42.3448162,-71.0697144
1161,636 BEACON ST Apt. 206,42.3495591,-71.0952817
1162,730 COLUMBIA RD,42.3203949,-71.0603392
1163,767 DORCHESTER AV Apt. 1,42.3243429,-71.05703849999999
1164,116 NONANTUM ST,42.34978700000001,-71.17247499999999
1165,39 MT VERNON ST Apt. 1L,42.32158280000001,-71.0571293
1166,6 MARYLAND ST,42.3118837,-71.0550928
1167,65 HARVEST ST,42.3236028,-71.0595499
1168,51 WITHINGTON ST,42.287705,-71.07278149999999
1169,48 N BEACON ST,42.3537603,-71.1400705
1170,2 WOOD ST Apt. 5,42.3758641,-71.0648329
1171,56 HARVEST ST,42.3231917,-71.0593178
1172,770 COLUMBIA RD Apt. 1,42.3203665,-71.0585653
1173,70 NORTHAMPTON ST Apt. 402,42.3347449,-71.0761076
1174,21 TAPPAN ST,42.2893553,-71.1322026
1175,18 MAPLE TE,42.3600825,-71.0588801
1176,663 E EIGHTH ST,42.3313221,-71.0347568
1177,36 MOORE ST,42.3834668,-71.0191559
1178,41 PARK DR Apt. 1-A,42.3434631,-71.0951905
1179,1313 WASHINGTON ST Apt. PS U96,42.3419965,-71.06837759999999
1180,1 HUNTINGTON AV Apt. PH1802,42.3486982,-71.0782134
1181,545 E FIFTH ST Apt. 1,42.3336386,-71.03868349999999
1182,293 COMMONWEALTH AV Apt. 4D,42.3502363,-71.08552089999999
1183,26 MT VERNON ST Apt. 1,42.3582361,-71.0654715
1184,65 KENWOOD ST,42.2922267,-71.0687889
1185,28 MT VERNON ST Apt. 1,42.322146,-71.0574692
1186,11 HOWELL ST Apt. 11-2,42.3251216,-71.05737529999999
1187,7 KNOWLTON ST,42.3326851,-71.0498928
1188,24 BROOKFORD ST,42.3185812,-71.07588299999999
1189,131 MARLBOROUGH ST Apt. 5,42.3532596,-71.078126
1190,10 FOTTLER RD,42.2788573,-71.0947869
1191,29 S SYDNEY ST Apt. 3,42.3107921,-71.0542578
1192,HALFORD RD,42.2903471,-71.1487077
1193,2 CARLISLE ST,42.3143761,-71.0831809
1194,20 SILLOWAY ST,42.294965,-71.06234599999999
1195,17 WASHBURN ST Apt. 1,42.3257258,-71.05756199999999
1196,160 COMMONWEALTH AV Apt. 608,42.3512759,-71.07864789999999
1197,18 MARINE RD,42.3307071,-71.0386408
1198,26 STILLMAN ST Apt. 4-5,42.3636899,-71.05695639999999
1199,700 HARRISON AV Apt. PS 66,42.3384041,-71.070437
1200,292 WOOD AV,42.264109,-71.109087
1201,90 FULLER ST,42.2823287,-71.0698103
1202,351 GROVE ST,42.2576919,-71.1563862
1203,43 GATES ST Apt. 3,42.3324287,-71.0484668
1204,14 MT VERNON ST,42.3755958,-71.0588071
1205,4 CHARLESGATE EAST Apt. 406,42.3500855,-71.0913171
1206,7 BRIER RD,42.2756252,-71.1516053
1207,44 ELLERY ST,42.3292248,-71.05811059999999
1208,63 ASHLAND ST,42.2997589,-71.05045
1209,30 ST MARGARET ST,42.32183209999999,-71.0588516
1210,16 ADAIR RD,42.3520719,-71.1667449
1211,WASHBURN ST,42.3254704,-71.0571422
1212,560 PARK ST,42.2946174,-71.0762635
1213,50 MONUMENT SQ Apt. 2,42.3751776,-71.0605892
1214,404 W FIRST ST Apt. 23,42.3377439,-71.0433747
1215,172 WALNUT ST,42.2906077,-71.039957
1216,300 WASHINGTON ST,42.3487985,-71.1513246
1217,19 GLENHAM ST,42.28948949999999,-71.1688721
1218,194 BOSTON ST,42.3231062,-71.0603392
1219,45 W BROADWAY Apt. PH4,42.3421593,-71.0562769
1220,246 BUNKER HILL ST Apt. 2,42.3794897,-71.0642213
1221,440 E FIFTH ST Apt. 3,42.3340057,-71.0419611
1222,21 BEACON ST Apt. 3-A,42.35827219999999,-71.06243490000001
1223,129A CENTRE ST Apt. 2,42.2913308,-71.0664084
1224,313 K ST,42.3329442,-71.0374977
1225,1 CHESTNUT ST Apt. 2,42.3578139,-71.0663366
1226,5 LINCOLN PL,42.3776051,-71.0631782
1227,60 FOWLER ST,42.3009725,-71.0815171
1228,34 ALLSTON ST,42.3806637,-71.0634962
1229,69 GATES ST Apt. 3,42.3315725,-71.0484462
1230,16 FLORIDA ST,42.291846,-71.059878
1231,LORING PL,42.2479315,-71.1217984
1232,962 SOUTH ST,42.2875753,-71.1379121
1233,164 BOSTON ST,42.324002,-71.059707
1234,ROSLINDALE AV,42.2816681,-71.1372931
1235,5 ALVAN TE,42.3172706,-71.062707
1236,22 BROOKFORD ST,42.3185777,-71.0759963
1237,7 MONUMENT AV,42.3738387,-71.0622727
1238,38 DIX ST Apt. 2,42.2956094,-71.06000279999999
1239,GATES ST,42.3323779,-71.0482378
1240,4 TILESBORO ST,42.2943003,-71.0515298
1241,191 W EIGHTH ST Apt. 4,42.3334392,-71.0521589
1242,21 BURLEY ST,42.2732275,-71.1244389
1243,205 MANCHESTER ST,42.2741896,-71.0763563
1244,766 E THIRD ST Apt. PS #16,42.3600825,-71.0588801
1245,4 JOHNNY CT,42.3478309,-71.06314580000002
1246,305 SARATOGA ST,42.3782078,-71.0316112
1247,187 NEPONSET AV,42.292404,-71.0506821
1248,627 DORCHESTER AV Apt. 627,42.3284203,-71.057166
1249,893 E SECOND ST Apt. PS-3,42.3405956,-71.04996349999999
1250,5 DORSET ST Apt. 3,42.3236744,-71.0572189
1251,111 PINCKNEY ST Apt. A,42.3588816,-71.0701029
1252,5 SUMNER PK,42.316915,-71.0627998
1253,49 MONTFERN AV,42.3516917,-71.1643136
1254,42 DORSET ST,42.323751,-71.058887
1255,NEPONSET AV,42.2904092,-71.0487085
1256,154 HACKENSACK RD,42.2982259,-71.1443642
1257,90 N WASHINGTON ST,42.3653965,-71.05862130000001
1258,255 PERKINS ST Apt. D-204,42.32133779999999,-71.1219669
1259,4 ROSECLAIR ST,42.3211824,-71.0610356
1260,1088 DORCHESTER AV,42.313529,-71.05682
1261,1604 CENTRE ST,42.2883287,-71.1434359
1262,6 BELLFLOWER ST Apt. 2,42.3241531,-71.0575535
1263,2 LAGRANGE ST Apt. 5,42.273006,-71.1440978
1264,164 BOSTON ST Apt. 1,42.3239838,-71.0596999
1265,78 BOWDOIN ST,42.301891,-71.072299
1266,151 GROVE ST,42.2644661,-71.1583822
1267,62 LANE PK,42.342582,-71.15902
1268,33 OAKVIEW TE,42.319253,-71.1098279
1269,2 BUTLER ST,42.2745188,-71.06456399999999
1270,24 RAWSON ST Apt. 2,42.3260097,-71.05793899999999
1271,20 NORFOLK AV,42.328914,-71.07430599999999
1272,38 BELDEN ST,42.3189855,-71.0653533
1273,41 PORT NORFOLK ST Apt. 1L,42.2906395,-71.0405242
1274,47 HARVEST ST Apt. 3,42.3234067,-71.0588315
1275,66 ORCHARD ST Apt. 1,42.3116577,-71.12071879999999
1276,11 HARVEST ST,42.3227764,-71.05732139999999
1277,14 MAYHEW ST,42.3219098,-71.06029269999999
1278,25 LINNET ST,42.2793809,-71.1531371
1279,19 CORTES ST Apt. 1,42.3484025,-71.0704552
1280,15 JUSTIN RD,42.3530907,-71.1683615
1281,8 MONUMENT SQ,42.3760884,-71.0597356
1282,83 BOLTON ST,42.3412241,-71.0518428
1283,24 RAWSON ST Apt. PS-13,42.3260099,-71.057959
1284,26 MT VERNON ST,42.3582275,-71.065539
1285,68 CUSHMAN RD,42.3535557,-71.1455352
1286,15 BRADLEE ST,42.26687949999999,-71.1154913
1287,246 BOSTON ST Apt. 7,42.32137609999999,-71.0610236
1288,125 MARLBOROUGH ST,42.3533339,-71.07785969999999
1289,8 CAPITAL ST,42.285584,-71.1710536
1290,13 UPTON ST Apt. 4,42.3421308,-71.0716451
1291,23 TAFT ST Apt. 2,42.31750900000001,-71.0580021
1292,9 MONUMENT SQ,42.376151,-71.05963799999999
1293,346 BEACON ST Apt. 9,42.3525935,-71.08431999999999
1294,28 MT VERNON ST Apt. 4,42.322146,-71.0574692
1295,17 TWOMEY CT Apt. 62,42.3593999,-71.0564346
1296,86 BUNKER HILL ST Apt. 3,42.3772292,-71.05819389999999
1297,134 COLERIDGE ST,42.3809255,-71.0149306
1298,95 SURREY ST,42.3511215,-71.1573915
1299,16 BELLFLOWER ST,42.3242679,-71.058205
1300,172 BOSTON ST,42.3237697,-71.0598749
1301,21 MAYHEW ST,42.32145360000001,-71.0600142
1302,8 HUNTOON ST,42.272195,-71.064889
1303,19 GRAY ST Apt. 1,42.3457522,-71.0711752
1304,12 CORONADO RD,42.2625263,-71.10385099999999
1305,89 HOBART ST,42.3555125,-71.1616313
1306,17 ROSECLAIR ST Apt. 4,42.3207839,-71.0607364
1307,39 ASHFIELD ST,42.2909806,-71.1315411
1308,672 LAGRANGE ST,42.28820049999999,-71.1662612
1309,78 SALEM ST,42.3637,-71.05590699999999
1310,333 WASHINGTON ST Apt. 423,42.3570301,-71.0592746
1311,69 PROSPECT ST,42.2468367,-71.1137737
1312,627 DORCHESTER AV Apt. 627A,42.32840849999999,-71.05712679999999
1313,584 E THIRD ST,42.3366219,-71.0365444
1314,38 BALDWIN ST,42.3811875,-71.0713423
1315,485 HARRISON AV Apt. 305,42.34201270000001,-71.0664456
1316,8 PACIFIC ST Apt. 2,42.33410440000001,-71.0453864
1317,8 WASHBURN ST Apt. 13-1,42.3253205,-71.0572637
1318,25 MT VERNON ST Apt. #2,42.3218562,-71.0581531
1319,15 HOWELL ST Apt. 1,42.3251675,-71.05757539999999
1320,456 SHAWMUT AV Apt. 1,42.3389578,-71.0752783
1321,15 GOODALE RD,42.283236,-71.092489
1322,10 PARLEY AV,42.31536639999999,-71.11340229999999
1323,1 GRAYSON ST,42.283169,-71.0504403
1324,22 LIBERTY DR Apt. B1-79,42.3545427,-71.0452696
1325,785 VFW PW,42.3600825,-71.0588801
1326,53 COLLINS ST,42.271303,-71.1171741
1327,84 ROSECLAIR ST Apt. 1,42.3213851,-71.0575289
1328,24 NEPONSET AV,42.2967427,-71.0552525
1329,150 M ST Apt. 1,42.3327846,-71.0330391
1330,4 MERLIN ST,42.2953642,-71.0751957
1331,355 ASHMONT ST,42.2870769,-71.058234
1332,28 ST MARGARET ST,42.3218813,-71.0590392
1333,16 EAST ST,42.3365905,-71.0755669
1334,221 MINOT ST Apt. 3,42.2837442,-71.0562171
1335,59 BRAINERD RD Apt. 210,42.34804829999999,-71.132825
1336,9 ST MARGARET ST Apt. 1,42.3221388,-71.0605861
